[  {    "title": "약령시건너(동성로입구)",    "lat": 35.86784188,    "lng": 128.5936867  },
{'lat': 35.87028367, 'lng': 128.5897118, 'title': '곽병원건너'},
  {    "title": "대구역앞",    "lat": 35.8745935,    "lng": 128.5976212  },
  {    "title": "중구청앞",    "lat": 35.86898298,    "lng": 128.6069025  },
  {    "title": "계명대학교 대구동산병원앞1",    "lat": 35.8685509,    "lng": 128.5823385  },
  {    "title": "방천시장(김광석길)앞",    "lat": 35.86224523,    "lng": 128.6063391  },
  {    "title": "봉산문화거리앞",    "lat": 35.86463592,    "lng": 128.5971731  },
  {    "title": "경북공고앞",    "lat": 35.85790098,    "lng": 128.5828075  },
  {    "title": "수창초등학교",    "lat": 35.875345,    "lng": 128.58224  },
  {    "title": "상수도사업본부건너",    "lat": 35.85648675,    "lng": 128.5961886  },
{'lat': 35.86594632, 'lng': 128.5852631, 'title': '엘디스리젠트호텔앞'},
  {    "title": "대구향교건너",    "lat": 35.86023935,    "lng": 128.5958776  },
  {    "title": "중부소방서건너",    "lat": 35.86312555,    "lng": 128.5755587  }
{'lat': 35.85718537, 'lng': 128.6046642, 'title': '청운맨션앞'},{    "title": "동대구역",    "lat": 35.87939167,    "lng": 128.6269944  },
  {    "title": "대구국제공항앞",    "lat": 35.89926493,    "lng": 128.6364056  },
{'lat': 35.87414717, 'lng': 128.6138597, 'title': '신천LH아파트앞'},
  {    "title": "반야월역(3번출구)",    "lat": 35.86584078,    "lng": 128.7146342  },
  {    "title": "대구일마이스터고교앞",    "lat": 35.88089507,    "lng": 128.6475359  },
  {    "title": "파계사(종점)",    "lat": 35.99035823,    "lng": 128.6369601  },
{'lat': 35.87762082, 'lng': 128.6765476, 'title': '백자맨션앞'},
{'lat': 35.91459735, 'lng': 128.6412378, 'title': '불로동고분군앞'},
{'lat': 35.87373667, 'lng': 128.749895, 'title': 'LH10단지아파트앞'},
  {    "title": "율하근린공원건너",    "lat": 35.86820333,    "lng": 128.6917533  },
  {    "title": "안심도서관1(서편)",    "lat": 35.85990667,    "lng": 128.6997217  },
  {    "title": "방짜유기박물관건너",    "lat": 35.96447708,    "lng": 128.6978905  },
  {    "title": "섬뜸마을",    "lat": 35.9324956,    "lng": 128.6883578  },
  {    "title": "진인동(진정마을)2",    "lat": 35.95819588,    "lng": 128.7146076  },{    "title": "큰장네거리1",    "lat": 35.8711705,    "lng": 128.5782699  },
{'lat': 35.86316702, 'lng': 128.5718292, 'title': '새길시장앞'},
  {    "title": "대구과학기술고등학교앞",    "lat": 35.85578237,    "lng": 128.5477465  },
  {    "title": "서대구역(남측)1",    "lat": 35.88068167,    "lng": 128.540185  },
{'lat': 35.8720643, 'lng': 128.564034, 'title': 'KT서대구지사앞'},
  {    "title": "비산초등학교앞",    "lat": 35.879265,    "lng": 128.5651663  },
  {    "title": "대구학교지원센터건너 (대구학생예술창작터건너)",    "lat": 35.87733323,    "lng": 128.5550656  },
  {    "title": "중리시장앞",    "lat": 35.86935327,    "lng": 128.5483552  },
  {    "title": "팔달시장역",    "lat": 35.88888348,    "lng": 128.5669521  },
  {    "title": "대구의료원앞",    "lat": 35.8588155,    "lng": 128.5406238  },
  {    "title": "서대구고속버스터미널",    "lat": 35.89020167,    "lng": 128.55759  },
{'lat': 35.88044982, 'lng': 128.5802635, 'title': '고성아파트건너(서편)'},
  {    "title": "서대구공단네거리2",    "lat": 35.86955377,    "lng": 128.5379961  },
  {    "title": "인지초등학교입구",    "lat": 35.884385,    "lng": 128.5652817  },{    "title": "한영한마음아동병원앞",    "lat": 35.83484218,    "lng": 128.5557824  },
  {    "title": "경일여자고등학교건너",    "lat": 35.8376872,    "lng": 128.5989861  },
{'lat': 35.8389786, 'lng': 128.5753178, 'title': '안지랑네거리1'},
  {    "title": "대구가톨릭대학병원앞",    "lat": 35.84451925,    "lng": 128.5690864  },
  {    "title": "대명공연거리건너",    "lat": 35.85411348,    "lng": 128.5832386  },
  {    "title": "계명대학교대명캠퍼스앞",    "lat": 35.85712228,    "lng": 128.5808087  },
  {    "title": "경북여상건너",    "lat": 35.85515342,    "lng": 128.590812  },
  {    "title": "남구청네거리1",    "lat": 35.84483677,    "lng": 128.599826  },
  {    "title": "충혼탑건너",    "lat": 35.8333106,    "lng": 128.584565  },
  {    "title": "대명사회복지관앞",    "lat": 35.85098627,    "lng": 128.5757296  },
{'lat': 35.83259465, 'lng': 128.5977975, 'title': '남구종합스포츠타운앞'},
{'lat': 35.82875333, 'lng': 128.588805, 'title': '앞산공원관리사무소건너'},
{'lat': 35.85387017, 'lng': 128.5983885, 'title': '상수도중남부사업소앞'},
  {    "title": "골안골지하보도앞",    "lat": 35.831181,    "lng": 128.5705534  },{    "title": "경북대학교북문건너",    "lat": 35.89300942,    "lng": 128.6096682  },
  {    "title": "대구과학대학교1",    "lat": 35.92986758,    "lng": 128.5481056  },
  {    "title": "대구병원건너",    "lat": 35.91287562,    "lng": 128.5483566  },
  {    "title": "대구삼성창조캠퍼스4",    "lat": 35.8811116,    "lng": 128.5963617  },
  {    "title": "팔달역1",    "lat": 35.89756167,    "lng": 128.5478283  },
  {    "title": "대구시산격청사앞",    "lat": 35.89084303,    "lng": 128.5980981  },
  {    "title": "칠성시장(전자상가건너)",    "lat": 35.8787282,    "lng": 128.6030286  },
  {    "title": "엑스코건너",    "lat": 35.90781185,    "lng": 128.6106009  },
{'lat': 35.88804712, 'lng': 128.5829176, 'title': '북대구세무서앞'},
{'lat': 35.94442, 'lng': 128.614825, 'title': '연경우방아이유쉘앞'},
  {    "title": "성북시장건너",    "lat": 35.8949173,    "lng": 128.5946333  },
  {    "title": "칠곡경북대병원",    "lat": 35.95746167,    "lng": 128.5658683  },
  {    "title": "대구국제고등학교앞",    "lat": 35.95501667,    "lng": 128.582185  },
  {    "title": "대구국제사격장",    "lat": 35.91053667,    "lng": 128.5252783  },{    "title": "경신고등학교건너",    "lat": 35.85899258,    "lng": 128.637247  },
  {    "title": "중동시장앞",    "lat": 35.8411088,    "lng": 128.6096677  },
  {    "title": "대공원역(5번출구)",    "lat": 35.84211973,    "lng": 128.6814547  },
  {    "title": "수성못오거리1",    "lat": 35.82654728,    "lng": 128.6101052  },
  {    "title": "성동초등학교건너",    "lat": 35.84037885,    "lng": 128.6333003  },
  {    "title": "정호승문학관앞(구.신천시장)",    "lat": 35.8658722,    "lng": 128.61797  },
  {    "title": "대구경찰청",    "lat": 35.8286438,    "lng": 128.6335585  },
  {    "title": "수성도서관앞2",    "lat": 35.87246847,    "lng": 128.6372146  },
{'lat': 35.81512183, 'lng': 128.6489387, 'title': '범물두성타운건너'},
  {    "title": "대구시지노인전문병원앞",    "lat": 35.82830333,    "lng": 128.7098167  },
  {    "title": "대구시교육청건너",    "lat": 35.85677518,    "lng": 128.6136881  },
{'lat': 35.84039188, 'lng': 128.7113513, 'title': '매호성당건너'},
  {    "title": "육상진흥센터앞",    "lat": 35.82915167,    "lng": 128.6791017  },
{'lat': 35.8485368, 'lng': 128.7208857, 'title': '성동마을건너'},{    "title": "서부정류장1",    "lat": 35.83755852,    "lng": 128.5564155  },
  {    "title": "제일여자상업고등학교건너",    "lat": 35.84177238,    "lng": 128.5447025  },
  {    "title": "서남시장앞1",    "lat": 35.85341165,    "lng": 128.5452775  },
  {    "title": "문성병원건너",    "lat": 35.84826043,    "lng": 128.5687482  },
  {    "title": "이마트월배점앞",    "lat": 35.81580833,    "lng": 128.5233033  },
{'lat': 35.83215318, 'lng': 128.5366278, 'title': '월성주공5단지앞'},
  {    "title": "롯데백화점상인점건너",    "lat": 35.81950655,    "lng": 128.5392608  },
  {    "title": "이월드(구.우방랜드)정문",    "lat": 35.85429967,    "lng": 128.560512  },
  {    "title": "중앙일보앞",    "lat": 35.83589367,    "lng": 128.5124943  },
  {    "title": "모다아울렛앞",    "lat": 35.8391586,    "lng": 128.4916602  },
  {    "title": "이곡장미공원건너",    "lat": 35.85764308,    "lng": 128.5155571  },
  {    "title": "정부대구지방합동청사후문2",    "lat": 35.80486963,    "lng": 128.5178091  },
{'lat': 35.81443557, 'lng': 128.5417732, 'title': '상인초등학교앞'},
  {    "title": "대곡중학교건너",    "lat": 35.8073036,    "lng": 128.5328581  },{    "title": "대실역(2번출구)",    "lat": 35.857975,    "lng": 128.4646267  },
  {    "title": "한남중미용정보고등학교건너",    "lat": 35.8054632,    "lng": 128.5011993  },
{'lat': 35.72920795, 'lng': 128.4521517, 'title': '달성군민운동장앞'},
  {    "title": "달성군청앞",    "lat": 35.775172,    "lng": 128.430477  },
  {    "title": "에코테마파크대구숲앞",    "lat": 35.79576673,    "lng": 128.627297  },
  {    "title": "국립대구과학관앞",    "lat": 35.6866,    "lng": 128.463515  },
{'lat': 35.88425167, 'lng': 128.4220817, 'title': '달서중고등학교건너'},
  {    "title": "현풍주공아파트",    "lat": 35.69176672,    "lng": 128.4429051  },
  {    "title": "정대리(대구미술광장)",    "lat": 35.75509335,    "lng": 128.5671907  },
  {    "title": "마비정벽화마을(종점)",    "lat": 35.78000638,    "lng": 128.5413334  },
  {    "title": "가창중학교앞",    "lat": 35.77405603,    "lng": 128.646051  },
  {    "title": "노사평화의전당앞",    "lat": 35.65123,    "lng": 128.4177667  },
  {    "title": "달성스포츠파크건너",    "lat": 35.70101443,    "lng": 128.4418018  },
{'lat': 35.7706067, 'lng': 128.4894505, 'title': '송해공원'}]
